[
	{
		"city": "Gwenborough",
	        "lat": "-37.3159",
	        "lng": "81.1496"
	},
	{
		"city": "Wisokyburgh",
	        "lat": "-43.9509",
	        "lng": "-34.4618"
	},
	{
		"city": "McKenziehaven",
	        "lat": "-68.6102",
                "lng": "-47.0653"
	},
	{
		"city": "South Elvis",
	        "lat": "29.4572",
	        "lng": "-164.2990"
	},
	{
		"city": "Roscoeview",
	        "lat": "-31.8129",
	        "lng": "62.5342"
	}

]